[
  {
    "id": "11",
    "name": "Aceh",
    "alt_name": "ACEH",
    "density":  200.0,
    "total": 100,
    "latitude": 4.36855,
    "longitude": 97.0253
  },
  {
    "id": "12",
    "name": "Sumatera Utara",
    "alt_name": "SUMATERA UTARA",
    "density":  250.0,
    "total": 200,
    "latitude": 2.19235,
    "longitude": 99.38122
  },
  {
    "id": "13",
    "name": "Sumatera Barat",
    "alt_name": "SUMATERA BARAT",
    "latitude": -1.34225,
    "density":  700.0,
    "total": 300,
    "longitude": 100.0761
  },
  {
    "id": "14",
    "name": "Riau",
    "alt_name": "RIAU",
    "density":  100.0,
    "total": 400,
    "latitude": 0.50041,
    "longitude": 101.54758
  },
  {
    "id": "31",
    "name": "DKI Jakarta",
    "alt_name": "DKI JAKARTA",
    "density": 1000.0,
    "total": 500,
    "latitude": -6.1745,
    "longitude": 106.8227
  }
]